{
"type": "FeatureCollection",
"name": "dtc_walks",
"crs": { "type": "name", "properties": { "name": "urn:ogc:def:crs:OGC:1.3:CRS84" } },
"features": [
{ "type": "Feature", "properties": { "id": 1, "title": "Peggy Salazar, Southeast Environmental Task Force", "videoSrc": "https:\/\/player.vimeo.com\/video\/220549536", "caption": "Interview with Peggy Salazar of the Southeast Environmental Task Force", "variable1": "icons/dt35/DTC10.png" }, "geometry": { "type": "Point", "coordinates": [ -87.547384, 41.653559 ] } },
{ "type": "Feature", "properties": { "id": 2, "title": "LaBagh Woods, with Daniel Suarez and Michael Swierz", "videoSrc": "https:\/\/player.vimeo.com\/video\/196500132", "caption": null, "variable1": "icons/dt35/DTC6.png" }, "geometry": { "type": "Point", "coordinates": [ -87.740776, 41.978177 ] } },
{ "type": "Feature", "properties": { "id": 3, "title": "Morton Arboretum, with Chuck Cannon", "videoSrc": "https:\/\/player.vimeo.com\/video\/188349830", "caption": null, "variable1": "icons/dt35/DTC4.png" }, "geometry": { "type": "Point", "coordinates": [ -88.077733, 41.821578 ] } },
{ "type": "Feature", "properties": { "id": 4, "title": "Talking Plants, with Wendy Makoons Geniusz and Aubrey Streit Krug", "videoSrc": "https:\/\/player.vimeo.com\/video\/247623807", "caption": null, "variable1": "icons/dt35/DTC5.png" }, "geometry": { "type": "Point", "coordinates": [ -87.717726, 41.88625 ] } },
{ "type": "Feature", "properties": { "id": 5, "title": "BP Refinery in Whiting, Indiana with Thomas Frank", "videoSrc": "https:\/\/player.vimeo.com\/video\/226983489", "caption": null, "variable1": "icons/dt35/DTC3.png" }, "geometry": { "type": "Point", "coordinates": [ -87.471429, 41.661021 ] } }
]
}
